City,Cloudiness,Country,Date,Humidity,Lat,Lng,Max Temp,Wind Speed
Sioux Lookout,75,CA,1586541570,50,50.1,-91.92,30.2,4.7
Hilo,90,US,1586541577,73,19.73,-155.09,72.0,3.36
Barrow,75,US,1586541577,91,71.29,-156.79,-14.8,5.82
Udachny,12,RU,1586541577,62,66.42,112.4,24.8,8.95
Port Elizabeth,77,ZA,1586541578,88,-33.92,25.57,62.6,9.17
Albany,75,US,1586541302,56,42.6,-73.97,46.0,25.28
Butaritari,100,KI,1586541578,72,3.07,172.79,83.86,7.23
Władysławowo,62,PL,1586541578,45,54.79,18.4,48.0,5.82
Hermanus,2,ZA,1586541578,91,-34.42,19.23,64.99,3.69
Fairbanks,90,US,1586541347,72,64.84,-147.72,16.0,4.7
San Cristobal,40,VE,1586541578,44,7.77,-72.22,95.0,6.93
Qaanaaq,0,GL,1586541579,83,77.48,-69.36,8.28,1.68
Chokurdakh,40,RU,1586541579,96,70.63,147.92,19.4,9.82
Saint-Philippe,20,RE,1586541579,74,-21.36,55.77,78.8,16.11
Kloulklubed,75,PW,1586541579,83,7.04,134.26,78.8,5.82
Tuktoyaktuk,40,CA,1586541579,84,69.45,-133.04,-0.4,9.17
Hualmay,64,PE,1586541412,65,-11.1,-77.61,78.39,8.86
New Norfolk,75,AU,1586541579,93,-42.78,147.06,55.4,1.12
Arraial do Cabo,75,BR,1586541579,73,-22.97,-42.03,75.2,6.93
Buchanan,27,LR,1586541580,76,5.88,-10.05,82.54,9.73
Urengoy,100,RU,1586541580,98,65.97,78.37,34.16,15.21
Vaini,20,TO,1586541321,93,-21.2,-175.2,64.4,2.24
Mataura,6,NZ,1586541580,95,-46.19,168.86,42.01,1.99
Aracataca,40,CO,1586541580,67,10.59,-74.19,97.0,5.82
Busselton,75,AU,1586541150,49,-33.65,115.33,69.01,14.16
Husavik,100,IS,1586541581,74,66.04,-17.34,33.8,11.41
Lander,1,US,1586541285,21,42.83,-108.73,60.8,5.82
Yumen,3,CN,1586541581,22,40.28,97.2,43.59,20.45
Atuona,19,PF,1586541343,77,-9.8,-139.03,81.95,11.95
Jamestown,90,US,1586541581,69,42.1,-79.24,37.4,28.86
Solnechnyy,1,RU,1586541327,92,50.72,136.63,26.65,4.25
Opuwo,52,NA,1586541581,34,-18.06,13.84,76.66,4.41
Cayenne,90,GF,1586541582,74,4.93,-52.33,84.2,11.41
Dingle,2,PH,1586541582,80,11.0,122.67,78.42,9.4
Shirvan,89,AZ,1586541582,63,39.95,48.9,51.15,3.22
Quatre Cocos,40,MU,1586541582,78,-20.21,57.76,78.8,13.87
Beloha,41,MG,1586541582,76,-25.17,45.05,72.21,19.22
Port Said,40,EG,1586541362,72,31.26,32.28,62.6,20.8
Watrous,100,CA,1586541582,80,51.67,-105.47,34.52,13.49
Amapá,83,BR,1586541583,82,1.0,-52.0,80.92,5.88
Hailin,69,CN,1586541583,62,44.58,129.42,37.69,4.34
Bilma,9,NE,1586541583,12,18.69,12.92,86.25,8.93
São Filipe,0,CV,1586541583,69,14.9,-24.5,76.95,12.86
Rikitea,94,PF,1586541583,75,-23.12,-134.97,76.86,6.13
Kapaa,1,US,1586541505,88,22.08,-159.32,68.0,6.93
Bluff,10,NZ,1586541583,95,-46.6,168.33,42.01,1.99
Kaitangata,21,NZ,1586541584,85,-46.28,169.85,51.01,1.72
Hobyo,66,SO,1586541584,66,5.35,48.53,83.71,14.97
Punta Arenas,75,CL,1586541430,66,-53.15,-70.92,48.2,17.22
Maragogi,0,BR,1586541584,62,-9.01,-35.22,86.04,10.87
Souillac,40,MU,1586541584,78,-20.52,57.52,78.8,13.87
Mar del Plata,40,AR,1586541555,63,-38.0,-57.56,71.01,12.75
Coquimbo,80,CL,1586541585,64,-29.95,-71.34,68.0,12.75
Constitución,11,CL,1586541585,58,-35.33,-72.42,63.34,6.49
Sur,85,OM,1586541329,57,22.57,59.53,84.52,9.82
Airai,42,TL,1586541585,72,-8.93,125.41,60.17,0.58
Lebu,25,CL,1586541585,66,-37.62,-73.65,62.53,6.87
Igarka,100,RU,1586541586,95,67.47,86.58,33.4,20.65
Oudtshoorn,3,ZA,1586541586,82,-33.59,22.2,62.6,1.12
Ushuaia,75,AR,1586541389,70,-54.8,-68.3,46.4,23.04
Ribeira Grande,40,PT,1586541586,77,38.52,-28.7,64.4,5.82
Kalmunai,58,LK,1586541586,75,7.42,81.82,81.82,8.46
Baykit,100,RU,1586541571,94,61.67,96.37,28.62,5.55
Dikson,98,RU,1586541149,97,73.51,80.55,14.16,6.24
Avarua,100,CK,1586541586,100,-21.21,-159.78,77.0,1.12
Pechenga,83,RU,1586541587,73,69.53,31.17,26.6,28.86
Vágur,100,FO,1586541587,93,61.47,-6.81,44.65,14.27
São Geraldo do Araguaia,52,BR,1586541587,69,-6.4,-48.55,88.2,0.74
Kungurtug,64,RU,1586541587,45,50.6,97.52,34.39,4.32
Makakilo City,20,US,1586541587,100,21.35,-158.09,71.6,3.78
Port Hedland,0,AU,1586541588,88,-20.32,118.57,73.4,6.93
Lorengau,97,PG,1586541588,77,-2.02,147.27,81.66,5.35
Rio de Janeiro,90,BR,1586541443,73,-22.9,-43.21,75.2,11.41
Kavieng,100,PG,1586541588,76,-2.57,150.8,83.25,6.58
Zinder,100,NE,1586541588,12,13.81,8.99,96.8,11.41
Lata,40,PT,1586541381,77,40.16,-8.33,64.99,9.17
Lavrentiya,98,RU,1586541588,91,65.58,-171.0,5.81,9.93
Thompson,75,CA,1586541588,39,55.74,-97.86,30.2,3.36
Tasiilaq,20,GL,1586541589,68,65.61,-37.64,26.6,1.54
Walvis Bay,5,NA,1586541544,77,-22.96,14.51,69.01,5.01
Strängnäs,63,SE,1586541589,31,59.38,17.03,48.2,8.05
Buhe,100,CN,1586541589,91,30.29,112.23,45.0,19.82
Bandrele,5,YT,1586541589,74,-12.91,45.19,84.2,3.36
Moose Factory,90,CA,1586541589,80,51.26,-80.61,30.2,11.41
Mitsamiouli,52,KM,1586541590,72,-11.38,43.28,84.88,9.98
Lunglei,0,IN,1586541590,45,22.88,92.73,63.75,2.15
Ancud,75,CL,1586541590,82,-41.87,-73.82,59.0,8.05
Sampit,36,ID,1586541590,95,-2.53,112.95,75.02,1.63
Dicabisagan,94,PH,1586541591,84,17.08,122.42,76.17,4.7
Tignère,72,CM,1586541591,56,7.37,12.65,73.38,3.85
Tiznit Province,58,MA,1586541591,54,29.58,-9.5,65.73,7.56
Cap Malheureux,40,MU,1586541591,78,-19.98,57.61,78.8,13.87
Srednekolymsk,9,RU,1586541592,91,67.45,153.68,13.98,8.97
Jalalpur Jattan,20,PK,1586541592,60,32.64,74.22,75.2,4.7
Cape Town,3,ZA,1586541505,82,-33.93,18.42,66.0,4.7
Portland,20,US,1586541095,66,45.52,-122.68,61.0,3.36
Onega,32,RU,1586541592,90,63.91,38.14,26.46,5.86
Shihezi,100,CN,1586541592,41,44.3,86.03,49.46,6.35
Mount Isa,65,AU,1586541458,35,-20.73,139.5,73.4,12.75
Vardø,100,NO,1586541593,90,70.37,31.11,30.22,17.72
Kruisfontein,57,ZA,1586541450,60,-34.0,24.73,60.19,3.09
Ballina,30,AU,1586541377,100,-28.87,153.57,64.4,12.15
Ponta do Sol,20,PT,1586541593,64,32.67,-17.1,68.0,12.75
Baní,40,DO,1586541593,62,18.28,-70.33,89.6,11.41
Chui,6,UY,1586541593,60,-33.7,-53.46,69.33,10.18
Halmstad,19,SE,1586541593,75,56.67,12.86,43.0,9.17
Esim,73,GH,1586541594,76,4.87,-2.24,83.71,6.08
Provideniya,100,RU,1586541594,92,64.38,-173.3,9.54,15.28
Holme,85,DK,1586541594,68,56.11,10.17,46.99,11.41
Boa Vista,75,BR,1586541594,58,2.82,-60.67,87.8,10.29
East London,100,ZA,1586541594,78,-33.02,27.91,69.82,10.42
Pevek,32,RU,1586541331,85,69.7,170.31,-3.15,20.83
Mount Gambier,75,AU,1586541594,87,-37.83,140.77,53.6,20.8
Puerto Ayora,20,EC,1586541594,66,-0.74,-90.35,86.0,5.82
Montale,0,IT,1586541595,24,43.94,11.02,69.01,8.05
Malbork,87,PL,1586541595,45,54.04,19.03,48.0,5.82
Port Alfred,95,ZA,1586541595,81,-33.59,26.89,66.81,2.44
Høyanger,29,NO,1586541595,79,61.22,6.07,42.8,5.82
Inuvik,40,CA,1586541384,56,68.35,-133.72,14.0,10.29
Nome,90,US,1586541595,79,64.5,-165.41,24.8,6.17
Norman Wells,20,CA,1586541595,61,65.28,-126.83,14.0,3.36
Qaqortoq,100,GL,1586541596,28,60.72,-46.03,42.8,47.2
Chapais,75,CA,1586541596,35,49.78,-74.85,39.2,16.11
Hofn,100,IS,1586541596,86,64.25,-15.21,39.29,11.32
Inhambane,52,MZ,1586541596,78,-23.86,35.38,73.4,9.15
Mahébourg,40,MU,1586541596,78,-20.41,57.7,78.8,13.87
Torbay,90,CA,1586541596,92,47.67,-52.73,37.0,21.92
Tokmak,71,UA,1586541596,79,47.25,35.71,52.5,13.6
Poli,75,TZ,1586541597,93,-3.33,36.8,71.6,13.87
Los Llanos de Aridane,20,ES,1586541597,78,28.66,-17.92,71.6,8.05
Awjilah,0,LY,1586541597,37,29.11,21.29,64.63,12.82
Salalah,20,OM,1586541597,74,17.02,54.09,82.4,4.7
Carnarvon,77,AU,1586541597,100,-24.87,113.63,77.0,10.29
Bengkulu,87,ID,1586541597,81,-3.8,102.27,77.5,4.09
Kidal,99,ML,1586541597,14,18.44,1.41,95.63,10.65
Jos,20,NG,1586541598,88,9.92,8.9,69.8,10.29
Honningsvåg,100,NO,1586541598,93,70.98,25.97,28.49,19.44
Fortuna,90,US,1586541598,100,40.6,-124.16,57.99,8.05
Saldanha,13,ZA,1586541598,72,-33.01,17.94,66.2,11.41
Songea,40,TZ,1586541598,73,-10.68,35.65,73.4,4.7
Hobart,75,AU,1586541499,93,-42.88,147.33,55.4,1.12
Macao,40,MO,1586541599,100,22.2,113.55,73.0,4.7
Saint Paul Harbor,1,US,1586541599,79,57.79,-152.41,26.6,5.82
Sitka,1,US,1586541599,69,57.05,-135.33,37.4,6.17
Abalak,90,RU,1586541599,95,58.13,68.59,36.55,7.11
Caravelas,62,BR,1586541599,80,-17.71,-39.25,79.68,14.67
Leningradskiy,0,RU,1586541403,80,69.38,178.42,-4.81,7.85
Bagdarin,0,RU,1586541600,65,54.43,113.6,29.95,4.21
Port Macquarie,90,AU,1586541600,100,-31.43,152.92,59.0,4.7
Hanyang,100,CN,1586541600,54,32.14,105.51,55.6,6.08
Katsuura,75,JP,1586541600,39,35.13,140.3,50.0,14.99
Adré,86,TD,1586541601,18,13.47,22.2,89.31,1.52
Labuhan,53,ID,1586541601,83,-6.88,112.21,79.29,2.08
Jishou,100,CN,1586541601,81,28.32,109.72,54.25,8.39
Oistins,20,BB,1586541602,62,13.07,-59.53,86.0,16.11
Mana,62,GF,1586541602,65,5.66,-53.78,84.78,11.39
Ilulissat,20,GL,1586541495,55,69.22,-51.1,35.6,5.82
Calbuco,90,CL,1586541603,100,-41.77,-73.13,55.4,5.82
San Vicente,2,AR,1586541603,36,-26.62,-54.13,71.65,5.32
Severo-Kuril'sk,77,RU,1586541057,95,50.68,156.12,31.05,14.74
San Luis,0,AR,1586541351,30,-33.3,-66.34,73.98,17.54
Buala,34,SB,1586541603,78,-8.14,159.59,81.57,6.15
Jūybār,75,IR,1586541604,81,36.64,52.91,50.0,4.7
Shingū,16,JP,1586541604,65,33.73,135.98,41.76,8.08
Talaya,0,RU,1586541605,73,61.38,152.75,7.97,4.18
Camapuã,0,BR,1586541605,45,-19.53,-54.04,83.46,5.53
Carballo,90,ES,1586541321,93,43.21,-8.69,57.2,4.7
Hervey Bay,66,AU,1586541605,100,-25.3,152.85,70.0,1.12
Aklavik,40,CA,1586541606,56,68.22,-135.01,14.0,10.29
Tuatapere,0,NZ,1586541606,95,-46.13,167.68,42.01,1.99
Fukuechō,93,JP,1586541606,64,32.69,128.84,56.62,9.86
Vila do Maio,0,CV,1586541607,42,15.13,-23.22,86.0,17.22
Sørland,100,NO,1586541607,80,67.67,12.69,34.18,17.0
Ağdam,98,AZ,1586541607,61,39.99,46.93,48.07,1.79
Gold Coast,100,AU,1586541607,88,-28.0,153.43,68.0,8.05
Kailua,75,US,1586541607,83,21.4,-157.74,71.6,4.38
Saskylakh,84,RU,1586541607,92,71.92,114.08,24.44,17.52
Bambous Virieux,40,MU,1586541607,78,-20.34,57.76,78.8,13.87
Lagoa,0,PT,1586541608,64,39.05,-27.98,62.98,3.71
Ürümqi,100,CN,1586541608,45,43.8,87.6,48.2,2.24
Palamós,20,ES,1586541608,67,41.85,3.13,63.0,10.29
Upernavik,9,GL,1586541609,86,72.79,-56.15,18.19,5.7
Lisala,34,CD,1586541609,62,2.15,21.52,78.51,1.99
Luanda,75,AO,1586541534,70,-8.84,13.23,84.2,3.36
Nikolskoye,75,RU,1586541609,93,59.7,30.79,35.6,4.47
Yellowknife,20,CA,1586541529,66,62.46,-114.35,12.99,17.22
Zhigansk,45,RU,1586541609,94,66.77,123.37,22.3,13.53
Jaguarari,49,BR,1586541610,45,-10.26,-40.2,84.72,7.43
Borger,100,NL,1586541610,57,52.92,6.79,57.0,8.05
Kumul,4,CN,1586541610,19,42.8,93.45,57.96,10.47
San Fernando del Valle de Catamarca,19,AR,1586541610,60,-28.47,-65.79,75.99,8.99
Ust-Tsilma,100,RU,1586541610,95,65.44,52.15,19.72,5.79
Kimbe,65,PG,1586541380,86,-5.55,150.14,75.61,3.24
Pahrump,40,US,1586541611,61,36.21,-115.98,61.0,0.51
Mingshui,100,CN,1586541611,84,36.72,117.5,48.99,3.09
Ponta Delgada,20,PT,1586541611,68,37.73,-25.67,64.4,17.22
Bredasdorp,0,ZA,1586541611,72,-34.53,20.04,66.2,11.41
Santiago de Cao,51,PE,1586541612,83,-7.96,-79.24,73.4,11.41
Poya,38,NC,1586541612,77,-21.35,165.15,71.1,5.44
Venice,20,US,1586541612,74,27.1,-82.45,89.01,11.41
Mukhtolovo,94,RU,1586541612,76,55.46,43.2,39.49,5.41
Planadas,75,CO,1586541612,48,3.2,-75.65,87.8,3.36
Tegul'det,94,RU,1586541613,91,57.31,88.17,32.5,8.9
Coyhaique,90,CL,1586541613,76,-45.58,-72.07,57.2,3.36
Gonder,99,ET,1586541613,44,12.6,37.47,61.54,6.02
Cheremisinovo,40,RU,1586541613,60,51.89,37.26,42.8,6.71
Tigil',11,RU,1586541614,95,57.8,158.67,7.84,0.51
George Town,40,MY,1586541484,88,5.41,100.34,84.0,2.75
Bucerías,5,MX,1586541614,61,20.75,-105.33,82.4,3.36
Nanortalik,100,GL,1586541614,78,60.14,-45.24,36.39,8.05
Kinablangan,21,PH,1586541614,80,7.69,126.55,75.34,6.49
Meulaboh,92,ID,1586541614,84,4.14,96.13,79.39,4.59
Pitimbu,40,BR,1586541615,66,-7.47,-34.81,87.8,11.41
Borogontsy,97,RU,1586541615,89,62.67,131.17,32.25,14.7
Bāpatla,3,IN,1586541615,82,15.9,80.47,79.7,8.95
Köse,75,TR,1586541615,25,40.21,39.65,53.6,12.75
Hambantota,8,LK,1586541615,80,6.12,81.12,81.55,10.87
Tamandaré,1,BR,1586541277,65,-8.76,-35.1,85.64,9.82
Geraldton,3,AU,1586541166,83,-28.77,114.6,69.8,6.93
Esperance,75,AU,1586541154,87,-33.87,121.9,60.8,5.82
Bathsheba,20,BB,1586541224,62,13.22,-59.52,86.0,16.11
Alice Springs,0,AU,1586541485,54,-23.7,133.88,57.2,4.7
Slave Lake,1,CA,1586541544,68,55.28,-114.77,30.2,13.87
Aljezur,28,PT,1586541376,88,37.32,-8.8,64.0,11.68
Buenos Aires,20,AR,1586541514,60,-34.61,-58.38,72.0,10.29
Siocon,65,PH,1586541616,76,7.71,122.14,80.82,7.14
Pisco,40,PE,1586541172,30,-13.7,-76.22,78.01,11.41
Khani,75,GE,1586541617,81,41.96,42.96,50.0,10.29
Broome,90,US,1586541162,86,42.25,-75.83,37.0,13.87
Acarí,58,PE,1586541617,52,-15.43,-74.62,81.21,9.78
Asău,92,RO,1586541188,26,46.43,26.4,59.0,11.41
Westport,90,US,1586541493,48,41.14,-73.36,48.99,16.11
Egvekinot,0,RU,1586541617,83,66.32,-179.17,-3.87,5.77
High Rock,40,BS,1586541617,70,26.62,-78.28,84.2,17.22
Ginir,20,ET,1586541618,50,7.13,40.7,62.33,4.88
Kenai,1,US,1586541198,72,60.55,-151.26,28.99,5.82
Naze,22,JP,1586541160,87,28.37,129.48,55.4,3.36
Clyde River,90,CA,1586541193,85,70.47,-68.59,12.2,24.16
Sisimiut,21,GL,1586541618,88,66.94,-53.67,33.6,4.09
Nemuro,26,JP,1586541169,91,43.32,145.57,29.68,11.99
Omsukchan,0,RU,1586541618,81,62.53,155.8,4.64,6.24
Yichang,97,CN,1586541618,79,30.71,111.28,52.43,6.51
Okato,17,NZ,1586541618,63,-39.2,173.88,48.0,11.01
Peniche,40,PT,1586541164,77,39.36,-9.38,64.4,9.17
Fairfield,75,US,1586541619,34,41.27,-73.32,50.0,26.4
Barra Patuca,78,HN,1586541619,63,15.8,-84.28,84.63,13.35
Kayerkan,75,RU,1586541619,92,69.35,87.76,32.0,26.84
Klaksvík,100,FO,1586541240,87,62.23,-6.59,44.6,17.22
Mossamedes,5,AO,1586541239,56,-15.2,12.15,77.07,15.75
Adrar,0,MR,1586541619,8,20.5,-10.07,96.76,7.29
Nishihara,75,JP,1586541620,64,26.18,127.76,68.0,4.7
Vynohradivka,14,UA,1586541620,38,45.68,28.57,59.0,16.11
Waddān,63,LY,1586541267,23,29.16,16.14,68.05,8.79
College,90,US,1586541249,78,64.86,-147.8,18.0,5.82
Rameswaram,0,IN,1586541620,74,9.28,79.3,84.42,20.85
Oussouye,1,SN,1586541620,74,12.48,-16.55,96.8,4.7
Mabaruma,100,GY,1586541621,58,8.2,-59.78,86.23,7.63
Prescott,1,US,1586541616,37,34.54,-112.47,59.0,10.29
Rincon,20,US,1586541621,21,32.3,-81.24,75.0,16.11
Port Hardy,75,CA,1586541236,76,50.7,-127.42,50.0,12.75
Vila Franca do Campo,20,PT,1586541179,68,37.72,-25.43,64.4,17.22
Bonavista,100,CA,1586541418,88,48.65,-53.11,32.0,17.0
Ronneby,21,SE,1586541621,70,56.21,15.28,46.4,4.7
Vytegra,1,RU,1586541621,92,61.01,36.45,26.78,3.74
Hithadhoo,10,MV,1586541184,63,-0.6,73.08,84.74,5.3
Flinders,0,AU,1586541256,63,-34.58,150.86,64.0,17.22
Arlit,88,NE,1586541622,9,18.74,7.39,92.73,5.17
Laas,5,IT,1586541609,40,46.62,10.7,75.2,2.24
Guerrero Negro,32,MX,1586540926,57,27.98,-114.06,64.26,17.83
São João da Barra,90,BR,1586541218,57,-21.64,-41.05,78.8,8.05
Hong Kong,40,HK,1586540958,83,22.29,114.16,73.0,12.75
Longyearbyen,20,SJ,1586541165,59,78.22,15.64,3.2,6.93
Talnakh,75,RU,1586541198,93,69.49,88.4,32.0,26.84
Khovd,100,MN,1586541623,31,48.01,91.64,45.25,6.26
Lewiston,90,US,1586541623,87,44.1,-70.21,43.0,11.41
Okhtyrka,70,UA,1586541395,58,50.31,34.9,46.72,10.85
Panabá,82,MX,1586541623,18,21.28,-88.27,102.87,5.99
Gudivāda,18,IN,1586541623,75,16.45,80.98,79.88,4.0
Gubkinskiy,100,RU,1586541623,91,64.43,76.5,34.18,19.89
Nuuk,75,GL,1586541516,69,64.18,-51.72,37.4,11.41
Ostrovnoy,34,RU,1586541273,95,68.05,39.51,14.58,9.31
Rodrigues Alves,75,BR,1586541266,62,-7.74,-72.65,89.6,6.93
Katobu,38,ID,1586541624,88,-4.94,122.53,75.29,1.57
Hutang,90,CN,1586541624,100,31.53,119.48,55.0,6.71
Isla Mujeres,40,MX,1586541218,66,21.23,-86.73,87.8,11.41
Joensuu,90,FI,1586541476,86,62.6,29.76,33.01,9.17
Funadhoo,17,MV,1586541625,67,6.15,73.27,85.21,4.94
Burdur,20,TR,1586541625,35,37.72,30.29,57.2,11.41
Berbera,45,SO,1586541626,74,10.44,45.01,83.84,4.79
Bolotnoye,31,RU,1586541626,96,55.67,84.4,28.38,7.07
Kurumkan,0,RU,1586541626,52,54.3,110.3,41.09,1.28
Ukiah,1,US,1586541168,63,39.15,-123.21,61.0,4.7
Partizanskoye,100,RU,1586541627,86,55.5,94.39,30.63,2.57
Saint-Joseph,20,RE,1586541465,74,-21.37,55.62,78.8,16.11
Marsh Harbour,11,BS,1586541604,79,26.54,-77.06,79.45,16.33
Chiredzi,53,ZW,1586541630,59,-21.05,31.67,68.83,3.09
Vavoua,39,CI,1586541631,51,7.38,-6.48,89.15,3.8
Vostok,84,RU,1586541221,84,46.49,135.88,26.29,3.0
Rottenmann,7,AT,1586541631,32,47.52,14.35,66.2,5.82
Beringovskiy,100,RU,1586541188,94,63.05,179.32,5.32,15.43
Sangmélima,85,CM,1586541514,66,2.93,11.98,75.27,1.59
Orcopampa,23,PE,1586541632,11,-15.27,-72.34,59.77,9.28
Toma,100,BF,1586541641,29,12.77,-2.88,95.05,14.05
Castro,37,BR,1586541641,34,-24.79,-50.01,71.74,4.25
Hirara,65,JP,1586541206,73,24.8,125.28,69.93,15.88
Comodoro Rivadavia,94,AR,1586541641,52,-45.87,-67.5,69.8,5.82
Kangalassy,86,RU,1586541642,91,62.35,129.96,39.2,13.42
Duku,98,NG,1586541642,24,11.24,4.91,89.38,8.28
Cortez,1,US,1586541642,22,37.35,-108.59,57.99,9.17
Sakaiminato,75,JP,1586541642,93,35.55,133.23,39.2,4.7
Butajīra,49,ET,1586541607,27,8.12,38.37,68.77,3.83
Yangi Marg`ilon,91,UZ,1586541172,66,40.43,71.72,50.0,4.7
Garmsār,99,IR,1586541643,58,35.22,52.34,54.59,5.5
Bariloche,40,AR,1586541560,27,-41.15,-71.31,64.4,20.8
Abu Dhabi,100,AE,1586541476,29,24.47,54.37,93.2,2.24
Faanui,41,PF,1586541212,78,-16.48,-151.75,82.49,10.36
Andenes,97,NO,1586541643,68,69.31,16.12,30.2,12.75
Acapulco de Juárez,5,MX,1586541122,70,16.86,-99.89,84.2,8.05
Bodden Town,40,KY,1586541643,70,19.28,-81.25,86.0,5.82
Vila Velha,75,BR,1586541236,73,-20.33,-40.29,77.0,10.29
Richards Bay,42,ZA,1586541240,77,-28.78,32.04,73.83,20.74
Cidreira,9,BR,1586541208,67,-30.18,-50.21,69.26,10.71
Touros,40,BR,1586541222,62,-5.2,-35.46,87.8,12.75
Barcelos,75,PT,1586541259,87,41.54,-8.62,63.0,5.82
Springbok,0,ZA,1586541644,24,-29.66,17.89,59.05,4.32
Luoyang,100,CN,1586541644,81,34.68,112.45,42.57,4.56
Berlevåg,100,NO,1586541645,90,70.86,29.09,27.75,17.36
Nishifukuma,65,JP,1586541541,70,33.77,130.47,50.0,2.24
Ahipara,41,NZ,1586541155,82,-35.17,173.17,57.94,4.88
Semnan,87,IR,1586541645,51,35.57,53.4,53.76,1.54
Lodwar,94,KE,1586541645,30,3.12,35.6,92.05,19.71
Shache,36,CN,1586541196,16,38.42,77.24,61.63,7.58
Bāfq,99,IR,1586541645,26,31.61,55.41,73.94,10.8
Tilichiki,20,RU,1586541646,91,60.47,166.1,0.23,6.73
San Julián,0,MX,1586541646,9,21.02,-102.17,81.03,8.12
Arman',0,RU,1586541212,89,59.7,150.17,16.29,2.59
Abhā,40,SA,1586541646,77,18.22,42.51,68.0,11.41
Nioro,0,GM,1586541646,9,13.35,-15.75,104.18,6.2
Cherskiy,62,RU,1586541177,87,68.75,161.3,2.91,23.51
Yining,100,CN,1586541647,85,29.04,114.56,59.41,5.86
Zabul Province,98,AF,1586541647,35,32.25,67.25,58.23,8.01
Kasongo-Lunda,100,CD,1586541245,79,-6.47,16.82,72.59,1.39
Praia,0,CV,1586541647,42,14.92,-23.51,86.0,17.22
Diffa,100,NE,1586541267,10,13.32,12.61,90.36,7.94
Vítkov,45,CZ,1586541647,40,49.77,17.75,55.99,6.93
Saint George,1,US,1586541163,57,37.1,-113.58,59.0,3.36
Tambacounda,0,SN,1586541647,13,13.75,-13.76,107.6,2.24
Paamiut,100,GL,1586541647,74,61.99,-49.67,37.92,14.05
Codrington,91,AU,1586541148,75,-38.27,141.97,56.32,27.83
Kropotkin,0,RU,1586541648,47,45.44,40.58,51.84,0.92
Bonthe,55,SL,1586541648,76,7.53,-12.51,84.42,10.56
Banatski Karlovac,23,RS,1586541648,51,45.05,21.02,64.4,5.82
Vao,90,NC,1586541270,76,-22.67,167.48,73.85,12.12
Indramayu,48,ID,1586541648,77,-6.33,108.32,81.57,3.42
Cadillac,90,US,1586541648,43,44.25,-85.4,39.0,13.87
Barentu,69,ER,1586541648,29,15.11,37.59,80.35,6.11
Muhos,76,FI,1586541649,55,64.81,25.99,33.8,6.93
At-Bashi,86,KG,1586541649,24,41.17,75.81,41.29,8.79
Evensk,3,RU,1586541649,84,61.95,159.23,4.84,7.18
Iquitos,75,PE,1586541649,70,-3.75,-73.25,86.0,3.36
Dossor,94,KZ,1586541649,50,47.53,52.98,49.15,9.95
Port Keats,87,AU,1586541650,81,-14.25,129.55,71.76,18.57
Santa Lucía,20,ES,1586541650,60,27.91,-15.54,73.99,25.28
Ericeira,20,PT,1586541650,77,38.96,-9.42,66.99,10.29
Tiksi,79,RU,1586541196,93,71.69,128.87,22.46,23.91
Bud,40,US,1586541650,48,39.45,-86.18,48.0,9.17
Lompoc,1,US,1586541268,81,34.64,-120.46,64.0,6.4
Praia da Vitória,20,PT,1586541184,77,38.73,-27.07,66.2,6.87
Muttupet,0,IN,1586541651,74,10.4,79.48,81.79,10.74
Zarubino,10,RU,1586541651,62,42.63,131.09,41.86,11.48
Vera Cruz,66,BR,1586541651,66,-12.63,-41.03,80.89,2.77
Matamoros,90,MX,1586541651,34,25.53,-103.25,80.6,3.36
High Level,20,CA,1586541651,58,58.52,-117.14,24.8,13.87
Anadyr,40,RU,1586541263,83,64.75,177.48,-9.0,4.47
Khatanga,100,RU,1586541187,92,71.97,102.5,28.38,20.94
Stevens Point,75,US,1586541652,47,44.52,-89.57,44.01,4.7
Toamasina,40,MG,1586541652,83,-18.17,49.38,77.0,6.93
Hasaki,20,JP,1586541652,80,35.73,140.83,35.6,1.12
Kamenka,100,RU,1586541192,47,51.32,42.77,54.0,11.01
Agüimes,20,ES,1586541210,60,27.91,-15.45,73.99,25.28
Ubari,16,LY,1586541560,16,26.59,12.78,75.56,10.22
Knysna,19,ZA,1586541652,82,-34.04,23.05,62.6,1.12
Port Augusta,16,AU,1586541285,48,-32.5,137.77,64.4,9.17
Antalaha,42,MG,1586541653,82,-14.9,50.28,77.61,10.6
Baharly,37,TM,1586541653,48,38.44,57.43,58.84,8.57
Yatou,100,CN,1586541174,67,37.15,122.38,43.9,8.25
Baruun-Urt,21,MN,1586541280,39,46.68,113.28,36.3,6.87
Sirte,0,LY,1586541272,49,31.21,16.59,61.11,10.94
Ciudad Sabinas Hidalgo,81,MX,1586541653,62,26.5,-100.17,78.76,9.13
Dudinka,75,RU,1586541226,94,69.41,86.18,32.0,26.84
Boffa,2,GN,1586541654,65,10.17,-14.03,84.78,12.55
Praia,0,CV,1586541263,42,14.92,-23.51,86.0,17.22
Manggar,100,ID,1586541654,81,-2.88,108.27,80.76,4.23
Coolum Beach,88,AU,1586541654,98,-26.53,153.1,66.0,7.29
Skibbereen,75,IE,1586541654,77,51.55,-9.27,59.0,4.7
Carupano,94,VE,1586541655,53,10.67,-63.26,88.63,11.77
Eureka,90,US,1586541366,81,40.8,-124.16,57.99,5.82
Methven,0,NZ,1586541463,67,-43.63,171.65,48.0,8.03
Anloga,20,GH,1586541202,70,5.79,0.9,86.0,9.17
Manzhouli,4,CN,1586541655,44,49.6,117.43,39.97,6.08
Bemidji,1,US,1586541374,41,47.47,-94.88,44.01,14.99
Jodhpur,10,IN,1586541656,16,26.29,73.03,87.42,4.65
Necochea,0,AR,1586541656,50,-38.55,-58.74,73.0,14.0
Pirganj,10,BD,1586541656,18,25.85,88.36,82.17,3.62
Kuytun,94,RU,1586541656,77,54.34,101.5,38.98,4.52
Velingrad,40,BG,1586541656,54,42.03,24.0,68.0,11.41
Karratha,3,AU,1586541656,66,-20.74,116.85,81.3,8.72
Cururupu,76,BR,1586541657,70,-1.83,-44.87,85.71,8.77
Balkanabat,73,TM,1586541657,38,39.51,54.37,58.98,4.61
Harper,21,LR,1586541657,76,4.38,-7.72,83.01,8.1
Nouadhibou,0,MR,1586541179,60,20.93,-17.03,75.2,21.92
Hamilton,75,US,1586541059,42,39.18,-84.53,46.99,11.41
Butterworth,40,MY,1586541657,88,5.4,100.36,82.4,2.71
Kattivākkam,40,IN,1586541657,74,13.22,80.32,86.0,8.05
Liku,3,ID,1586541657,79,-0.73,119.89,75.24,1.03
Dzerzhinskoye,100,RU,1586541658,92,56.83,95.23,31.3,1.81
Faya,40,SA,1586541237,77,18.39,42.45,68.0,11.41
João Pinheiro,44,BR,1586541274,60,-17.74,-46.17,79.52,3.6
Lüderitz,0,NA,1586541207,63,-26.65,15.16,66.2,3.36
Kaili,85,ID,1586541658,69,-3.46,120.21,72.52,2.66
Tarazá,100,CO,1586541658,62,7.58,-75.4,88.57,3.85
Grindavik,90,IS,1586541186,93,63.84,-22.43,39.2,16.11
Saryg-Sep,100,RU,1586541659,62,51.5,95.6,35.37,2.44
Narsaq,100,GL,1586541176,28,60.92,-46.05,42.8,47.2
Molėtai,89,LT,1586541659,33,55.23,25.42,46.99,3.36
Buritizeiro,26,BR,1586541659,59,-17.35,-44.96,83.32,4.34
Choszczno,73,PL,1586541659,53,53.17,15.42,50.0,5.82
Japura,69,ID,1586541660,95,-0.32,102.35,74.23,0.67
Lidköping,0,SE,1586541404,42,58.51,13.16,48.2,4.7
Bethel,90,US,1586541183,48,41.37,-73.41,50.0,16.11
Laguna,1,US,1586541189,63,38.42,-121.42,64.99,3.36
Whitehorse,5,CA,1586541078,56,60.72,-135.05,24.01,2.24
Ouadda,54,CF,1586541660,43,8.08,22.4,79.99,3.49
Te Anau,11,NZ,1586541216,72,-45.42,167.72,45.99,4.65
Iralaya,84,HN,1586541661,56,15.0,-83.23,86.16,8.5
Namatanai,89,PG,1586541239,73,-3.67,152.43,81.43,3.36
Kaeo,1,NZ,1586541208,93,-35.1,173.78,48.99,3.69
Ilhabela,10,BR,1586541611,56,-23.78,-45.36,74.16,6.62
Homer,1,US,1586541571,68,59.64,-151.55,35.01,4.09
Devgarh,1,IN,1586541661,15,25.53,73.9,82.47,2.19
Yomou,35,GN,1586541662,50,7.56,-9.27,86.85,1.3
Kahului,1,US,1586541038,88,20.89,-156.47,73.0,4.25
Ziniaré,99,BF,1586541662,36,12.58,-1.3,95.0,3.36
Port Victoria,52,KE,1586541662,58,0.09,33.98,73.2,9.51
Tijāra,34,IN,1586541662,3,27.93,76.85,87.01,2.24
Novorzhev,96,RU,1586541662,69,57.03,29.33,39.06,6.08
Petropavlovsk-Kamchatskiy,75,RU,1586541273,85,53.05,158.65,24.8,2.24
Najrān,75,SA,1586541153,24,17.49,44.13,89.6,2.24
Namanyere,42,TZ,1586541663,62,-7.52,31.05,61.21,3.69
Gemeente Heiloo,98,NL,1586541363,47,52.6,4.7,63.0,9.17
Corinth,0,GR,1586541663,36,37.94,22.96,66.0,1.61
Cap-aux-Meules,75,CA,1586541422,91,47.38,-61.86,37.4,13.87
Dhidhdhoo,0,MV,1586541230,64,6.88,73.1,85.19,3.96
Khanbari,28,NP,1586541663,20,27.37,87.2,68.4,5.08
Rameshki,36,RU,1586541663,78,57.34,36.05,34.81,4.25
Almaty,40,KZ,1586541525,40,43.25,76.95,35.6,4.47
Hurghada,0,EG,1586541546,37,27.26,33.81,71.6,14.99
Half Moon Bay,90,US,1586541664,87,37.46,-122.43,63.0,10.29
Thinadhoo,0,MV,1586541664,59,0.53,72.93,84.99,3.2
Lengshuitan,97,CN,1586541664,88,26.41,111.6,59.41,10.58
Cocorit,5,MX,1586541665,33,27.58,-109.97,73.4,6.93
Catuday,26,PH,1586541665,77,16.29,119.81,79.0,6.11
Bukachacha,0,RU,1586541665,66,52.98,116.92,32.18,3.69
Katangli,100,RU,1586541197,97,51.71,143.23,23.4,8.57
Teruel,98,ES,1586541665,81,40.67,-0.67,59.0,8.05
Pochutla,20,MX,1586541665,49,15.74,-96.47,91.4,9.17
Sambava,38,MG,1586541666,86,-14.27,50.17,76.1,7.81
Gamba,86,GA,1586541666,84,-2.65,10.0,81.39,9.53
Nantucket,20,US,1586541666,49,41.28,-70.1,50.0,34.45
Ndélé,61,CF,1586541666,44,8.41,20.65,83.86,3.6
Nizhnyaya Omka,91,RU,1586541666,93,55.43,74.94,35.15,5.59
Rundu,56,NA,1586541666,78,-17.93,19.77,71.6,3.36
Kargasok,23,RU,1586541667,95,59.06,80.86,28.04,8.61
Esso,77,RU,1586541667,86,55.93,158.7,12.13,3.71
Kota Bharu,20,MY,1586541667,74,6.13,102.24,82.4,4.7
Ulladulla,0,AU,1586541667,63,-35.35,150.47,63.0,17.22
San Juan,0,AR,1586541660,24,-31.54,-68.54,79.34,6.64
Brăhășești,48,RO,1586541667,26,46.03,27.37,59.0,11.41
Gouré,100,NE,1586541667,12,13.98,10.27,93.0,5.01
Gushikawa,1,JP,1586541224,93,26.35,127.87,68.0,5.82
Bubaque,5,GW,1586541668,72,11.28,-15.83,79.27,13.73
Pontianak,98,ID,1586541269,87,-0.03,109.33,78.06,3.4
Vestmannaeyjar,100,IS,1586541668,87,63.44,-20.27,42.42,20.27
Feijó,58,BR,1586541668,67,-8.16,-70.35,87.15,4.76
Östersund,67,SE,1586541668,69,63.18,14.64,33.8,10.29
Bogovarovo,100,RU,1586541668,91,58.98,47.02,33.93,6.85
Koumra,69,TD,1586541669,33,8.91,17.55,90.54,2.44
Ishigaki,92,JP,1586541604,73,24.34,124.16,70.88,13.13
Temirtau,26,KZ,1586541669,92,50.05,72.95,24.8,4.47
El Tigre,94,VE,1586541669,39,8.89,-64.25,91.06,12.08
Tokur,0,RU,1586541669,90,53.13,132.9,20.55,0.6
Yanliang,90,CN,1586541471,87,34.66,109.23,44.6,4.47
Gramado,75,BR,1586541632,60,-29.38,-50.87,73.0,4.7
Honiara,75,SB,1586541133,94,-9.43,159.95,77.0,2.24
Batemans Bay,0,AU,1586541669,87,-35.72,150.18,53.01,11.21
Sabzawār,98,IR,1586541670,55,36.21,57.68,56.71,6.24
Tura,0,IN,1586541156,35,25.52,90.22,73.81,4.54
Iskateley,0,RU,1586541626,94,67.68,53.15,13.6,6.73
Ocho Rios,20,JM,1586541602,66,18.4,-77.1,86.0,8.05
Williston,1,US,1586541670,25,48.15,-103.62,50.0,5.82
Poso,29,ID,1586541439,67,-1.4,120.75,78.78,2.06
Gijang,75,KR,1586541670,65,35.24,129.21,46.4,5.82
Pacific Grove,90,US,1586541168,82,36.62,-121.92,61.0,5.3
Morehead,1,US,1586541671,31,37.27,-87.18,51.01,8.05
Kizema,96,RU,1586541671,96,61.11,44.83,28.2,5.75
Carutapera,42,BR,1586541190,72,-1.2,-46.02,84.88,10.78
Manavālakurichi,40,IN,1586541671,88,8.13,77.3,82.4,2.24
Alofi,100,NU,1586541174,83,-19.06,-169.92,75.2,4.7
Semibratovo,75,RU,1586541671,64,57.3,39.54,37.4,6.71
Jardim,0,BR,1586540928,30,-21.48,-56.14,82.96,4.25
Nabire,54,ID,1586541191,89,-3.37,135.48,76.24,1.12
Avera,1,US,1586541172,23,33.19,-82.53,68.0,12.75
Tabou,31,CI,1586541672,74,4.42,-7.35,83.25,7.2
Kupang,37,ID,1586541672,74,-10.17,123.58,80.69,10.02
Poum,61,NC,1586541167,74,-20.23,164.02,76.84,12.55
Valença,68,BR,1586541672,58,-13.37,-39.07,87.03,5.46
Zheleznodorozhnyy,63,RU,1586541672,45,55.75,38.0,46.0,8.95
Rocha,13,UY,1586541672,60,-34.48,-54.33,68.63,9.19
Safi,11,MA,1586541387,69,32.3,-9.24,67.21,20.29
Conchas,0,BR,1586541673,39,-23.02,-48.01,77.38,1.9
Pedraza,82,CO,1586541673,39,10.19,-74.92,98.37,3.24
Támesis,75,CO,1586541674,54,5.66,-75.71,80.6,12.75
Kuching,40,MY,1586541262,100,1.55,110.33,77.0,1.12
St. George's,20,GD,1586541505,70,12.06,-61.75,86.0,19.46
Ngunguru,2,NZ,1586541674,93,-35.62,174.5,48.99,6.11
Tūkrah,0,LY,1586541674,75,32.53,20.58,58.37,8.43
Las Palmas,40,ES,1586541674,78,28.42,-14.01,71.6,19.46
Lengshuijiang,100,CN,1586541674,82,27.69,111.43,53.22,8.75
Envira,86,BR,1586541254,83,-7.3,-70.22,82.69,2.98
Sistranda,20,NO,1586541674,86,63.73,8.83,39.2,16.11
Mormugao,19,IN,1586541675,80,15.4,73.8,78.75,5.66
Bontang,49,ID,1586541675,80,0.13,117.5,79.12,10.63
Stropkov,24,SK,1586541675,28,49.2,21.65,55.4,8.05
Timrå,73,SE,1586541675,35,62.49,17.33,41.0,9.17
Tadine,26,NC,1586541189,67,-21.55,167.88,72.18,4.21
Pedernales,40,DO,1586541675,66,18.04,-71.74,87.8,18.34
Orlik,51,RU,1586541675,52,52.52,99.83,29.28,2.46
Puerto Escondido,5,MX,1586541676,65,15.85,-97.07,82.4,9.17
Cañon City,1,US,1586541550,22,38.44,-105.24,69.8,6.93
Corrente,90,BR,1586541676,59,-3.74,-43.34,89.38,4.25
Macheng,100,CN,1586541676,85,31.18,115.03,49.73,14.79
Iqaluit,40,CA,1586541191,72,63.75,-68.51,10.4,3.36
Susanville,1,US,1586541676,50,40.42,-120.65,53.6,5.82
Porto-Novo,20,BJ,1586541676,74,6.5,2.6,84.2,3.36
Mizdah,32,LY,1586541676,24,31.45,12.98,66.7,8.05
Oranjemund,0,NA,1586541399,73,-28.55,16.43,60.3,5.84
Antofagasta,20,CL,1586540906,56,-23.65,-70.4,71.6,10.29
Vaitape,43,PF,1586541677,78,-16.52,-151.75,83.35,10.31
Sibolga,92,ID,1586541165,79,1.74,98.78,77.86,2.68
Bongandanga,66,CD,1586541677,64,1.5,21.05,79.14,1.83
Correntina,23,BR,1586541677,56,-13.34,-44.64,84.63,1.3
Klyuchi,9,RU,1586541677,67,52.27,79.17,38.03,7.31
Krasnoarmeysk,59,RU,1586541677,45,51.02,45.7,48.99,1.99
Abu Kamal,58,SY,1586541678,33,34.45,40.92,67.01,3.94
Saint Lawrence,20,MT,1586541678,72,36.06,14.2,61.0,6.93
Gigmoto,3,PH,1586541678,74,13.78,124.39,81.14,6.4
Sechura,51,PE,1586541678,68,-5.56,-80.82,77.54,9.4
Yeppoon,40,AU,1586541678,100,-23.13,150.73,68.0,2.91
Cervo,100,ES,1586541214,99,43.67,-7.41,57.0,5.01
Padang,96,ID,1586541678,77,-0.95,100.35,78.62,2.57
Sayyan,4,YE,1586541679,23,15.17,44.32,64.36,0.43
